{
  "type": "FeatureCollection",
  "features": [
    {
      "type": "Feature",
      "properties": {
        "name": "Equinix HK1",
        "description": "PoP",
        "address": "27/F Goodman Global Gateway 168 Yeung Uk Road Tsuen Wan Hong Kong",
        "image": "https://uploads-ssl.webflow.com/6453980466edcb7b60b5acc6/64adbec085da1d25d6824bc3_equinix.svg"
      },
      "geometry": {
        "type": "Point",
        "coordinates": [
          114.1192605005102,
          22.36556441161067
        ]
      }
    },
    {
      "type": "Feature",
      "properties": {
        "name": "Mega-i",
        "description": "PoP",
        "address": "399 Chai Wan Road Chai Wan Hong Kong",
        "image": "https://uploads-ssl.webflow.com/6453980466edcb7b60b5acc6/64adbec07bf44cd9d987bb5e_m.svg"
      },
      "geometry": {
        "type": "Point",
        "coordinates": [
          114.2464988235576,
          22.26604875389664
        ]
      }
    },
    {
      "type": "Feature",
      "properties": {
        "name": "IDC 3D Duren Tiga",
        "description": "PoP",
        "address": "Raya No. 7H Duren Tiga Jakarta 12760 Indonesia",
        "image": "Example"
      },
      "geometry": {
        "type": "Point",
        "coordinates": [
          106.8326635,
          -6.253512299999999
        ]
      }
    },
    {
      "type": "Feature",
      "properties": {
        "name": "Equinix TY2",
        "description": "PoP",
        "address": "3-8-21 Higashi-Shinagawa Shinagawa-ku Tokyo 140-0002 Japan",
        "image": "https://uploads-ssl.webflow.com/6453980466edcb7b60b5acc6/64adbec085da1d25d6824bc3_equinix.svg"
      },
      "geometry": {
        "type": "Point",
        "coordinates": [
          139.7480895992844,
          35.61747279406958
        ]
      }
    },
    {
      "type": "Feature",
      "properties": {
        "name": "AT Tokyo CC1",
        "description": "PoP",
        "address": "TEPCO Toyosu Building 6-2-15 Toyosu Koto-ku Tokyo 135-0061 Japan",
        "image": "https://uploads-ssl.webflow.com/6453980466edcb7b60b5acc6/64adbec16c9fe3489b7150f6_tokyo.svg"
      },
      "geometry": {
        "type": "Point",
        "coordinates": [
          139.7909526,
          35.647825
        ]
      }
    },
    {
      "type": "Feature",
      "properties": {
        "name": "AIMS",
        "description": "PoP",
        "address": "Menara AIMS Changkat Raja Chulan Kuala Lumpur 50200 Malaysia",
        "image": "https://uploads-ssl.webflow.com/6453980466edcb7b60b5acc6/64adbec085da1d25d6824b96_aims.svg"
      },
      "geometry": {
        "type": "Point",
        "coordinates": [
          101.7063496035184,
          3.149474854506465
        ]
      }
    },
    {
      "type": "Feature",
      "properties": {
        "name": "Cyberjava CX2",
        "description": "PoP",
        "address": "7118 Jalan Impact Cyberjaya Selangor 63000 Malaysia",
        "image": "https://example.com/path/to/another-image.jpg"
      },
      "geometry": {
        "type": "Point",
        "coordinates": [
          101.6619158000409,
          2.91704020021367
        ]
      }
    },
    {
      "type": "Feature",
      "properties": {
        "name": "Vitro Makati 1",
        "description": "PoP",
        "address": "123 Main St, Anytown, Anystate, United States of America",
        "image": "https://uploads-ssl.webflow.com/6453980466edcb7b60b5acc6/64adbec06d0f25c7866ddb74_epldr.svg"
      },
      "geometry": {
        "type": "Point",
        "coordinates": [
          121.0168044338093,
          14.56076920135615
        ]
      }
    },
    {
      "type": "Feature",
      "properties": {
        "name": "1-Net 750D",
        "description": "PoP",
        "address": "750D Chai Chee Road, #07-04, Singapore 469004",
        "image": "https://uploads-ssl.webflow.com/6453980466edcb7b60b5acc6/64adbec0d49cdd7db3721962_1net.svg"
      },
      "geometry": {
        "type": "Point",
        "coordinates": [
          103.92078695943,
          1.32246644733259
        ]
      }
    },
    {
      "type": "Feature",
      "properties": {
        "name": "1-Net 750E",
        "description": "PoP",
        "address": "750E Chai Chee Road, #06-01, Singapore 469005",
        "image": "https://uploads-ssl.webflow.com/6453980466edcb7b60b5acc6/64adbec0d49cdd7db3721962_1net.svg"
      },
      "geometry": {
        "type": "Point",
        "coordinates": [
          103.920752453461,
          1.323718829446811
        ]
      }
    },
    {
      "type": "Feature",
      "properties": {
        "name": "BDx SIN1",
        "description": "PoP",
        "address": "110 Paya Lebar Rd, Singapore 409009",
        "image": "https://uploads-ssl.webflow.com/6453980466edcb7b60b5acc6/64adbec03804a2e7ae478d07_bdx.svg"
      },
      "geometry": {
        "type": "Point",
        "coordinates": [
          103.8917573233774,
          1.323900878477693
        ]
      }
    },
    {
      "type": "Feature",
      "properties": {
        "name": "Digital Realty SIN10 (Jurong)",
        "description": "PoP",
        "address": "29A International Business Park Singapore 609934 Singapore",
        "image": "https://uploads-ssl.webflow.com/6453980466edcb7b60b5acc6/64adbec0f58144cbcb907838_drt.svg"
      },
      "geometry": {
        "type": "Point",
        "coordinates": [
          103.7461241850543,
          1.327709398158464
        ]
      }
    },
    {
      "type": "Feature",
      "properties": {
        "name": "Digital Realty SIN11 (Loyang)",
        "description": "PoP",
        "address": "3 Loyang Way Singapore 508719 Singapore",
        "image": "https://uploads-ssl.webflow.com/6453980466edcb7b60b5acc6/64adbec0f58144cbcb907838_drt.svg"
      },
      "geometry": {
        "type": "Point",
        "coordinates": [
          103.9683587563964,
          1.371082449422019
        ]
      }
    },
    {
      "type": "Feature",
      "properties": {
        "name": "Digital Realty SIN12 (Loyang)",
        "description": "PoP",
        "address": "11 Loyang Close Singapore 506756 Singapore",
        "image": "https://uploads-ssl.webflow.com/6453980466edcb7b60b5acc6/64adbec0f58144cbcb907838_drt.svg"
      },
      "geometry": {
        "type": "Point",
        "coordinates": [
          103.9662669090926,
          1.370925289630131
        ]
      }
    },
    {
      "type": "Feature",
      "properties": {
        "name": "DXC The Fort",
        "description": "PoP",
        "address": "6 Changi South Lane Singapore 486400 Singapore",
        "image": "https://uploads-ssl.webflow.com/6453980466edcb7b60b5acc6/64adbec0ed61980a7ccc8763_dxt.svg"
      },
      "geometry": {
        "type": "Point",
        "coordinates": [
          103.9515773989193,
          1.332601586581956
        ]
      }
    },
    {
      "type": "Feature",
      "properties": {
        "name": "Epsilon Global Hubs Singapore",
        "description": "PoP",
        "address": "151 Lorong Chuan #06-02 Lobby A Singapore 556741 Singapore",
        "image": "https://uploads-ssl.webflow.com/6453980466edcb7b60b5acc6/64adbec06c90b517b89c3826_epsilon.svg"
      },
      "geometry": {
        "type": "Point",
        "coordinates": [
          103.8606052850618,
          1.352236348055974
        ]
      }
    },
    {
      "type": "Feature",
      "properties": {
        "name": "Equinix SG1",
        "description": "PoP",
        "address": "20 Ayer Rajah Crescent Singapore 139964 Singapore",
        "image": "https://uploads-ssl.webflow.com/6453980466edcb7b60b5acc6/64adbec085da1d25d6824bc3_equinix.svg"
      },
      "geometry": {
        "type": "Point",
        "coordinates": [
          103.7900359166224,
          1.295452368188883
        ]
      }
    },
    {
      "type": "Feature",
      "properties": {
        "name": "Equinix SG2",
        "description": "PoP",
        "address": "15 Pioneer Walk #04-01 Singapore 627753 Singapore",
        "image": "https://uploads-ssl.webflow.com/6453980466edcb7b60b5acc6/64adbec085da1d25d6824bc3_equinix.svg"
      },
      "geometry": {
        "type": "Point",
        "coordinates": [
          103.6957317,
          1.321500299999988
        ]
      }
    },
    {
      "type": "Feature",
      "properties": {
        "name": "Equinix SG3",
        "description": "PoP",
        "address": "26A Ayer Rajah Crescent Private Lot FX1-4a Singapore 139963 Singapore",
        "image": "https://uploads-ssl.webflow.com/6453980466edcb7b60b5acc6/64adbec085da1d25d6824bc3_equinix.svg"
      },
      "geometry": {
        "type": "Point",
        "coordinates": [
          103.7908077,
          1.2959615
        ]
      }
    },
    {
      "type": "Feature",
      "properties": {
        "name": "Equinix SG5",
        "description": "PoP",
        "address": "6 Sunview Drive Singapore 627488 Singapore",
        "image": "https://uploads-ssl.webflow.com/6453980466edcb7b60b5acc6/64adbec085da1d25d6824bc3_equinix.svg"
      },
      "geometry": {
        "type": "Point",
        "coordinates": [
          103.7016115991268,
          1.317216069978334
        ]
      }
    },
    {
      "type": "Feature",
      "properties": {
        "name": "Global Switch Tai Seng",
        "description": "PoP",
        "address": "2 Tai Seng Avenue Singapore 534408 Singapore",
        "image": "https://uploads-ssl.webflow.com/6453980466edcb7b60b5acc6/64adbec1a1c692b00ef1d6c6_globalswich.svg"
      },
      "geometry": {
        "type": "Point",
        "coordinates": [
          103.8938277088824,
          1.336723013280421
        ]
      }
    },
    {
      "type": "Feature",
      "properties": {
        "name": "Keppel DC Singapore 1",
        "description": "PoP",
        "address": "25 Serangoon North Ave 5 Singapore 554914 Singapore",
        "image": "https://uploads-ssl.webflow.com/6453980466edcb7b60b5acc6/64adbec01b8995c850363dcc_keppel.svg"
      },
      "geometry": {
        "type": "Point",
        "coordinates": [
          103.874874,
          1.375497999999987
        ]
      }
    },
    {
      "type": "Feature",
      "properties": {
        "name": "M1 MiWorld",
        "description": "PoP",
        "address": "9 International Business Park Singapore 609915 Singapore",
        "image": "https://uploads-ssl.webflow.com/6453980466edcb7b60b5acc6/64adbec07bf44cd9d987bb5e_m.svg"
      },
      "geometry": {
        "type": "Point",
        "coordinates": [
          103.7502767599642,
          1.32490523814969
        ]
      }
    },
    {
      "type": "Feature",
      "properties": {
        "name": "NTT Serangoon Data Center",
        "description": "PoP",
        "address": "51 Serangoon North Avenue 4 Singapore 555858 Singapor",
        "image": "https://uploads-ssl.webflow.com/6453980466edcb7b60b5acc6/64adbec03804a2e7ae478e05_ntt.svg"
      },
      "geometry": {
        "type": "Point",
        "coordinates": [
          103.8748789277998,
          1.3761850788053
        ]
      }
    },
    {
      "type": "Feature",
      "properties": {
        "name": "Racks Central",
        "description": "PoP",
        "address": "23 Tai Seng Drive Singapore 535224 Singapore",
        "image": "https://uploads-ssl.webflow.com/6453980466edcb7b60b5acc6/64adbec03b9c8ab3e6a5348f_racks.svg"
      },
      "geometry": {
        "type": "Point",
        "coordinates": [
          103.8931961529276,
          1.336916173107204
        ]
      }
    },
    {
      "type": "Feature",
      "properties": {
        "name": "STT Tai Seng 1",
        "description": "PoP",
        "address": "35 Tai Seng Street Singapore 534103 Singapore",
        "image": "https://uploads-ssl.webflow.com/6453980466edcb7b60b5acc6/64adbec06d0f25c7866ddbcc_stt.svg"
      },
      "geometry": {
        "type": "Point",
        "coordinates": [
          103.8903720157525,
          1.335467310818801
        ]
      }
    },
    {
      "type": "Feature",
      "properties": {
        "name": "Chief LY",
        "description": "PoP",
        "address": "Building No. 250 Yangguang Street Taipei Neihu 114 Taiwan",
        "image": "https://uploads-ssl.webflow.com/6453980466edcb7b60b5acc6/64adbec07bf44cd9d987bac6_chief.svg"
      },
      "geometry": {
        "type": "Point",
        "coordinates": [
          121.5774709913739,
          25.07334771332513
        ]
      }
    },
    {
      "type": "Feature",
      "properties": {
        "name": "eASPNet",
        "description": "PoP",
        "address": "o. 248 Yangguang Street Taipei Neihu 114 Taiwan",
        "image": "https://uploads-ssl.webflow.com/6453980466edcb7b60b5acc6/64adbec029a7b59dac0ea66e_easpnet.svg"
      },
      "geometry": {
        "type": "Point",
        "coordinates": [
          121.5779418319115,
          25.07345957175333
        ]
      }
    },
    {
      "type": "Feature",
      "properties": {
        "name": "TCCT Bangna",
        "description": "PoP",
        "address": "1856 Interlink Tower II Bangna Trad Rd K.M. 4.5 Bangna Bangkok 10260 Thailand",
        "image": "https://uploads-ssl.webflow.com/6453980466edcb7b60b5acc6/64adbec129a7b59dac0eabd1_tcc.svg"
      },
      "geometry": {
        "type": "Point",
        "coordinates": [
          100.6516747374958,
          13.66322515698986
        ]
      }
    },
   {
      "type": "Feature",
      "properties": {
        "name": "KINX Dogok",
        "description": "PoP",
        "address": "5F, Daelim Acrotel, 13\nEonju-ro 30-gil\nGangnam-gu\nSeoul\nSouth Korea",
        "image": "https://uploads-ssl.webflow.com/6453980466edcb7b60b5acc6/64adbec129a7b59dac0eabd1_tcc.svg"
      },
      "geometry": {
        "type": "Point",
        "coordinates": [
          127.051206577032204, 
          37.488142217345427
        ]
      }
    },
   {
      "type": "Feature",
      "properties": {
        "name": "Metfone VTC6",
        "description": "PoP",
        "address": "St 105K, Phum Kbal Damrei\nSangKat Kakab\nPhnom Penh\nCambodia",
        "image": "https://uploads-ssl.webflow.com/6453980466edcb7b60b5acc6/64adbec129a7b59dac0eabd1_tcc.svg"
      },
      "geometry": {
        "type": "Point",
        "coordinates": [
          104.843375, 
          11.556217
        ]
      }
    },
    {
      "type": "Feature",
      "properties": {
        "name": "Viettel IDC Hoang Hoa Tham",
        "description": "PoP",
        "address": "58/2A Hoang Hoa Tham Street, Ward 12, Tan Binh Dist., HCMC, Vietnam",
        "image": "https://uploads-ssl.webflow.com/6453980466edcb7b60b5acc6/64adbec1ed61980a7ccc881a_viettel.svg"
      },
      "geometry": {
        "type": "Point",
        "coordinates": [
          106.6500257139634,
          10.80741931333016
        ]
      }
    }
  ]
}
